{
"type": "FeatureCollection",
"features": [
{ "type": "Feature", "properties": { "Store_Type": "CS", "Store_Name": "76", "Address": "4000 Redondo Beach Blvd", "Address Line #2": null, "City": "Torrance", "State": "CA", "Zip5": 90504, "Zip4": 1037.0, "County": "LOS ANGELES" }, "geometry": { "type": "Point", "coordinates": [ -118.34432, 33.877113 ] } },
{ "type": "Feature", "properties": { "Store_Type": "CS", "Store_Name": "7-11", "Address": "2986 Walnut Hill Ln", "Address Line #2": null, "City": "Dallas", "State": "TX", "Zip5": 75229, "Zip4": 5712.0, "County": "DALLAS" }, "geometry": { "type": "Point", "coordinates": [ -96.878601, 32.880894 ] } },
{ "type": "Feature", "properties": { "Store_Type": "CS", "Store_Name": "7-11", "Address": "4200 Abrams Rd", "Address Line #2": null, "City": "Dallas", "State": "TX", "Zip5": 75214, "Zip4": 2341.0, "County": "DALLAS" }, "geometry": { "type": "Point", "coordinates": [ -96.752876, 32.836582 ] } },
{ "type": "Feature", "properties": { "Store_Type": "CS", "Store_Name": "' A ' Circle Food Mart", "Address": "15446 14th St", "Address Line #2": null, "City": "Dade City", "State": "FL", "Zip5": 33523, "Zip4": 2306.0, "County": "PASCO" }, "geometry": { "type": "Point", "coordinates": [ -82.195671, 28.383131 ] } },
{ "type": "Feature", "properties": { "Store_Type": "CS", "Store_Name": "\"A\" FOOD STORE", "Address": "11 W Burgess Rd", "Address Line #2": null, "City": "Pensacola", "State": "FL", "Zip5": 32503, "Zip4": 7108.0, "County": "ESCAMBIA" }, "geometry": { "type": "Point", "coordinates": [ -87.255417, 30.497267 ] } },
{ "type": "Feature", "properties": { "Store_Type": "CS", "Store_Name": "# 1 FOOD 4 MART", "Address": "729 NW 185th Ave", "Address Line #2": null, "City": "Beaverton", "State": "OR", "Zip5": 97006, "Zip4": 3446.0, "County": "WASHINGTON" }, "geometry": { "type": "Point", "coordinates": [ -122.86753, 45.524349 ] } },
{ "type": "Feature", "properties": { "Store_Type": "CS", "Store_Name": "# 1 Store", "Address": "5243 Ford-Wellpinit Rd", "Address Line #2": null, "City": "Ford", "State": "WA", "Zip5": 99013, "Zip4": null, "County": "STEVENS" }, "geometry": { "type": "Point", "coordinates": [ -117.80861, 47.908638 ] } },
{ "type": "Feature", "properties": { "Store_Type": "SG", "Store_Name": "#1 Express Deli Inc", "Address": "759 Clinton Ave N", "Address Line #2": null, "City": "Rochester", "State": "NY", "Zip5": 14605, "Zip4": 1155.0, "County": "MONROE" }, "geometry": { "type": "Point", "coordinates": [ -77.612495, 43.172272 ] } },
{ "type": "Feature", "properties": { "Store_Type": "SE", "Store_Name": "#1 FISH MARKET", "Address": "2239 State St", "Address Line #2": null, "City": "Hamden", "State": "CT", "Zip5": 6517, "Zip4": 3704.0, "County": "NEW HAVEN" }, "geometry": { "type": "Point", "coordinates": [ -72.895401, 41.341862 ] } },
{ "type": "Feature", "properties": { "Store_Type": "SG", "Store_Name": "#1 SUPER PALESTINE", "Address": "10326 S Harlem Ave", "Address Line #2": null, "City": "Palos Hills", "State": "IL", "Zip5": 60465, "Zip4": 2036.0, "County": "COOK" }, "geometry": { "type": "Point", "coordinates": [ -87.798065, 41.703262 ] } },
{ "type": "Feature", "properties": { "Store_Type": "CS", "Store_Name": "$1 Days", "Address": "4130 SW Lombard Ave", "Address Line #2": "Ste 100", "City": "Beaverton", "State": "OR", "Zip5": 97005, "Zip4": 2187.0, "County": "WASHINGTON" }, "geometry": { "type": "Point", "coordinates": [ -122.80138, 45.489384 ] } },
{ "type": "Feature", "properties": { "Store_Type": "CS", "Store_Name": "$1 Plus Store", "Address": "1017 W Gardena Blvd", "Address Line #2": null, "City": "Gardena", "State": "CA", "Zip5": 90247, "Zip4": 4977.0, "County": "LOS ANGELES" }, "geometry": { "type": "Point", "coordinates": [ -118.29203, 33.881607 ] } },
{ "type": "Feature", "properties": { "Store_Type": "CS", "Store_Name": "$1 Smart Outlet", "Address": "126 W 40th St", "Address Line #2": null, "City": "San Bernardino", "State": "CA", "Zip5": 92407, "Zip4": 3852.0, "County": "SAN BERNARDINO" }, "geometry": { "type": "Point", "coordinates": [ -117.28565, 34.164963 ] } },
{ "type": "Feature", "properties": { "Store_Type": "CS", "Store_Name": "$1.00 Store", "Address": "3846 Linden Ave", "Address Line #2": null, "City": "Dayton", "State": "OH", "Zip5": 45432, "Zip4": 3002.0, "County": "GREENE" }, "geometry": { "type": "Point", "coordinates": [ -84.12738, 39.747154 ] } },
{ "type": "Feature", "properties": { "Store_Type": "CS", "Store_Name": "(102) 4 Brothers Food Store 102", "Address": "287 Holly Springs Rd", "Address Line #2": null, "City": "Mount Airy", "State": "NC", "Zip5": 27030, "Zip4": 7947.0, "County": "SURRY" }, "geometry": { "type": "Point", "coordinates": [ -80.55896, 36.461647 ] } },
{ "type": "Feature", "properties": { "Store_Type": "CS", "Store_Name": "(104) 4 Brothers Food Store 104", "Address": "Rt 1 Hwy 52 Perch Road", "Address Line #2": null, "City": "Pinnacle", "State": "NC", "Zip5": 27043, "Zip4": null, "County": "STOKES" }, "geometry": { "type": "Point", "coordinates": [ -80.450478, 36.306854 ] } },
{ "type": "Feature", "properties": { "Store_Type": "CS", "Store_Name": "(203) 4 Brothers Food Store 203", "Address": "715 W 5th St", "Address Line #2": null, "City": "Winston Salem", "State": "NC", "Zip5": 27101, "Zip4": 2706.0, "County": "FORSYTH" }, "geometry": { "type": "Point", "coordinates": [ -80.253754, 36.098907 ] } },
{ "type": "Feature", "properties": { "Store_Type": "CS", "Store_Name": "(205) 4 Brothers Food Store 205", "Address": "5217 Robinhood Rd", "Address Line #2": null, "City": "Winston Salem", "State": "NC", "Zip5": 27106, "Zip4": 8705.0, "County": "FORSYTH" }, "geometry": { "type": "Point", "coordinates": [ -80.367676, 36.120758 ] } },
{ "type": "Feature", "properties": { "Store_Type": "CS", "Store_Name": "(206) 4 Brothers Food Store 206", "Address": "7895 Broad St", "Address Line #2": null, "City": "Rural Hall", "State": "NC", "Zip5": 27045, "Zip4": 9301.0, "County": "FORSYTH" }, "geometry": { "type": "Point", "coordinates": [ -80.29097, 36.236897 ] } },
{ "type": "Feature", "properties": { "Store_Type": "CS", "Store_Name": "(209) 4 Brothers Food Store 209", "Address": "2602 New Walkertown Rd", "Address Line #2": null, "City": "Winston Salem", "State": "NC", "Zip5": 27101, "Zip4": 1949.0, "County": "FORSYTH" }, "geometry": { "type": "Point", "coordinates": [ -80.213905, 36.109909 ] } },
{ "type": "Feature", "properties": { "Store_Type": "CS", "Store_Name": "(210) 4 Brothers Food Store 210", "Address": "902 S Stratford Rd", "Address Line #2": null, "City": "Winston Salem", "State": "NC", "Zip5": 27103, "Zip4": 3204.0, "County": "FORSYTH" }, "geometry": { "type": "Point", "coordinates": [ -80.296791, 36.082001 ] } },
{ "type": "Feature", "properties": { "Store_Type": "CS", "Store_Name": "(211) 4 Brothers Food Stores 211", "Address": "3939 Country Club Rd", "Address Line #2": null, "City": "Winston Salem", "State": "NC", "Zip5": 27104, "Zip4": 2914.0, "County": "FORSYTH" }, "geometry": { "type": "Point", "coordinates": [ -80.317558, 36.09005 ] } },
{ "type": "Feature", "properties": { "Store_Type": "CS", "Store_Name": "(212) 4 Brothers Food Store 212", "Address": "2410 Lewisville Clemmons Rd", "Address Line #2": null, "City": "Clemmons", "State": "NC", "Zip5": 27012, "Zip4": 8706.0, "County": "FORSYTH" }, "geometry": { "type": "Point", "coordinates": [ -80.383987, 36.033588 ] } },
{ "type": "Feature", "properties": { "Store_Type": "CS", "Store_Name": "(214) 4 Brothers Food Store 214", "Address": "4575 Yadkinville Rd", "Address Line #2": null, "City": "Pfafftown", "State": "NC", "Zip5": 27040, "Zip4": 8623.0, "County": "FORSYTH" }, "geometry": { "type": "Point", "coordinates": [ -80.357307, 36.153408 ] } },
{ "type": "Feature", "properties": { "Store_Type": "CS", "Store_Name": "(215) 4 Brothers Food Stores 215", "Address": "6351 Shallowford Rd", "Address Line #2": null, "City": "Lewisville", "State": "NC", "Zip5": 27023, "Zip4": 9603.0, "County": "FORSYTH" }, "geometry": { "type": "Point", "coordinates": [ -80.416389, 36.098625 ] } },
{ "type": "Feature", "properties": { "Store_Type": "CS", "Store_Name": "(217) 4 Brothers Food Store 217", "Address": "5115 Main St", "Address Line #2": null, "City": "Walkertown", "State": "NC", "Zip5": 27051, "Zip4": 9384.0, "County": "FORSYTH" }, "geometry": { "type": "Point", "coordinates": [ -80.152885, 36.176231 ] } },
{ "type": "Feature", "properties": { "Store_Type": "CS", "Store_Name": "(300) 4 Brothers Food Store 300", "Address": "1736 Highway 67", "Address Line #2": null, "City": "Jonesville", "State": "NC", "Zip5": 28642, "Zip4": null, "County": "YADKIN" }, "geometry": { "type": "Point", "coordinates": [ -80.815094, 36.239117 ] } },
{ "type": "Feature", "properties": { "Store_Type": "CS", "Store_Name": "(302) 4 Brothers Food Store 302", "Address": "800 S State St", "Address Line #2": null, "City": "Yadkinville", "State": "NC", "Zip5": 27055, "Zip4": 7757.0, "County": "YADKIN" }, "geometry": { "type": "Point", "coordinates": [ -80.660187, 36.120293 ] } },
{ "type": "Feature", "properties": { "Store_Type": "CS", "Store_Name": "(303) 4 Brothers Food Store 303", "Address": "1688 Highway 64 West", "Address Line #2": null, "City": "Mocksville", "State": "NC", "Zip5": 27028, "Zip4": null, "County": "DAVIE" }, "geometry": { "type": "Point", "coordinates": [ -80.614876, 35.90778 ] } },
{ "type": "Feature", "properties": { "Store_Type": "CS", "Store_Name": "(306) 4 Brothers Food Store 306", "Address": "605 N Main St", "Address Line #2": null, "City": "Troutman", "State": "NC", "Zip5": 28166, "Zip4": 8529.0, "County": "IREDELL" }, "geometry": { "type": "Point", "coordinates": [ -80.896706, 35.714577 ] } },
{ "type": "Feature", "properties": { "Store_Type": "CS", "Store_Name": "(308) 4 Brothers Food Store 308", "Address": "656 W Main Ave", "Address Line #2": null, "City": "Taylorsville", "State": "NC", "Zip5": 28681, "Zip4": 2326.0, "County": "ALEXANDER" }, "geometry": { "type": "Point", "coordinates": [ -81.187042, 35.922169 ] } },
{ "type": "Feature", "properties": { "Store_Type": "CS", "Store_Name": "(310) 4 Brothers Food Store 310", "Address": "117 NC Highway 801 N", "Address Line #2": null, "City": "Advance", "State": "NC", "Zip5": 27006, "Zip4": 7945.0, "County": "DAVIE" }, "geometry": { "type": "Point", "coordinates": [ -80.439529, 36.005257 ] } },
{ "type": "Feature", "properties": { "Store_Type": "CS", "Store_Name": "(400) 4 Brothers Food Store 400", "Address": "1611 W D St", "Address Line #2": null, "City": "North Wilkesboro", "State": "NC", "Zip5": 28659, "Zip4": 3531.0, "County": "WILKES" }, "geometry": { "type": "Point", "coordinates": [ -81.174248, 36.153332 ] } },
{ "type": "Feature", "properties": { "Store_Type": "CS", "Store_Name": "(401) 4 Brothers Food Store 401", "Address": "1301 Westwood Lane", "Address Line #2": null, "City": "Wilksboro", "State": "NC", "Zip5": 28697, "Zip4": null, "County": "WILKES" }, "geometry": { "type": "Point", "coordinates": [ -81.165627, 36.131485 ] } },
{ "type": "Feature", "properties": { "Store_Type": "CS", "Store_Name": "(500) 4 Brothers Food Store 500", "Address": "2694 Highway 21 South", "Address Line #2": null, "City": "Sparta", "State": "NC", "Zip5": 28675, "Zip4": null, "County": "ALLEGHANY" }, "geometry": { "type": "Point", "coordinates": [ -81.087524, 36.482258 ] } },
{ "type": "Feature", "properties": { "Store_Type": "CS", "Store_Name": "(Dryden) Marathon", "Address": "2501 Dryden Rd", "Address Line #2": null, "City": "Moraine", "State": "OH", "Zip5": 45439, "Zip4": 1731.0, "County": "MONTGOMERY" }, "geometry": { "type": "Point", "coordinates": [ -84.218048, 39.718704 ] } },
{ "type": "Feature", "properties": { "Store_Type": "FM", "Store_Name": "(FM) HOLYOKE FARMERS MARKET", "Address": "High St", "Address Line #2": null, "City": "Holyoke", "State": "MA", "Zip5": 1040, "Zip4": 5019.0, "County": "HAMPDEN" }, "geometry": { "type": "Point", "coordinates": [ -72.612022, 42.202572 ] } },
{ "type": "Feature", "properties": { "Store_Type": "CS", "Store_Name": ".99 + Bargain Corner", "Address": "1976 N E St", "Address Line #2": "Ste A", "City": "San Bernardino", "State": "CA", "Zip5": 92405, "Zip4": 3930.0, "County": "SAN BERNARDINO" }, "geometry": { "type": "Point", "coordinates": [ -117.29419, 34.133602 ] } },
{ "type": "Feature", "properties": { "Store_Type": "CO", "Store_Name": "0 Star Express Deli Grocery Corp", "Address": "3010 Glenwood Rd", "Address Line #2": null, "City": "Brooklyn", "State": "NY", "Zip5": 11210, "Zip4": 2642.0, "County": "KINGS" }, "geometry": { "type": "Point", "coordinates": [ -73.947639, 40.633953 ] } },
{ "type": "Feature", "properties": { "Store_Type": "CS", "Store_Name": "00 Liquors Inc. none", "Address": "1800 Whipple Rd", "Address Line #2": null, "City": "Union City", "State": "CA", "Zip5": 94587, "Zip4": 1928.0, "County": "ALAMEDA" }, "geometry": { "type": "Point", "coordinates": [ -122.0524, 37.606007 ] } },
{ "type": "Feature", "properties": { "Store_Type": "CO", "Store_Name": "0625680 7308", "Address": "400 14th St", "Address Line #2": null, "City": "West Point", "State": "VA", "Zip5": 23181, "Zip4": null, "County": "KING WILLIAM" }, "geometry": { "type": "Point", "coordinates": [ -76.799217, 37.536839 ] } },
{ "type": "Feature", "properties": { "Store_Type": "MG", "Store_Name": "0ne Stop Shop", "Address": "580 Toms River Rd", "Address Line #2": null, "City": "Jackson", "State": "NJ", "Zip5": 8527, "Zip4": 3723.0, "County": "OCEAN" }, "geometry": { "type": "Point", "coordinates": [ -74.372459, 40.071186 ] } },
{ "type": "Feature", "properties": { "Store_Type": "CS", "Store_Name": "1 AM MARKET", "Address": "1931 NE Stephens St", "Address Line #2": null, "City": "Roseburg", "State": "OR", "Zip5": 97470, "Zip4": 1435.0, "County": "DOUGLAS" }, "geometry": { "type": "Point", "coordinates": [ -123.35066, 43.23251 ] } },
{ "type": "Feature", "properties": { "Store_Type": "CS", "Store_Name": "1 Best Price 1", "Address": "3420 Grand Blvd", "Address Line #2": null, "City": "Holiday", "State": "FL", "Zip5": 34690, "Zip4": 2245.0, "County": "PASCO" }, "geometry": { "type": "Point", "coordinates": [ -82.723534, 28.209082 ] } },
{ "type": "Feature", "properties": { "Store_Type": "FV", "Store_Name": "1 BI Farm", "Address": "1120 Maunakea St", "Address Line #2": "Ste 103", "City": "Honolulu", "State": "HI", "Zip5": 96817, "Zip4": 5173.0, "County": "HONOLULU" }, "geometry": { "type": "Point", "coordinates": [ -157.86255, 21.312464 ] } },
{ "type": "Feature", "properties": { "Store_Type": "CS", "Store_Name": "1 Bridle Market", "Address": "1 Bridle Rd", "Address Line #2": null, "City": "Billerica", "State": "MA", "Zip5": 1821, "Zip4": 1705.0, "County": "MIDDLESEX" }, "geometry": { "type": "Point", "coordinates": [ -71.285103, 42.557735 ] } },
{ "type": "Feature", "properties": { "Store_Type": "CS", "Store_Name": "1 Deli", "Address": "6901 S Normal Blvd", "Address Line #2": null, "City": "Chicago", "State": "IL", "Zip5": 60621, "Zip4": 2426.0, "County": "COOK" }, "geometry": { "type": "Point", "coordinates": [ -87.637184, 41.76873 ] } },
{ "type": "Feature", "properties": { "Store_Type": "CS", "Store_Name": "1 DOLLAR MART, INC", "Address": "1931 E 7th St", "Address Line #2": null, "City": "Long Beach", "State": "CA", "Zip5": 90813, "Zip4": 5104.0, "County": "LOS ANGELES" }, "geometry": { "type": "Point", "coordinates": [ -118.16803, 33.775414 ] } },
{ "type": "Feature", "properties": { "Store_Type": "CS", "Store_Name": "1 Dollar Plus Shop Inc", "Address": "8500 Dyer Street", "Address Line #2": "Siute 21", "City": "El Paso", "State": "TX", "Zip5": 79904, "Zip4": 2800.0, "County": "EL PASO" }, "geometry": { "type": "Point", "coordinates": [ -106.43587, 31.857973 ] } },
{ "type": "Feature", "properties": { "Store_Type": "SM", "Store_Name": "1 Downtown South Food Corp\/Bravo Supermarket", "Address": "4801 N Dixie Hwy", "Address Line #2": null, "City": "Pompano Beach", "State": "FL", "Zip5": 33064, "Zip4": 4861.0, "County": "BROWARD" }, "geometry": { "type": "Point", "coordinates": [ -80.109528, 26.29019 ] } }
]
}
